Trip Number,Date,Country,Location,Details,Year,Latitude,Longitude
1,February 16,USA,"Washington, DC",Start in DC,2001,38.9072,-77.0369
1,February 16,Mexico,San Cristóbal,"Met with PresidentVincente Fox; discussed trade, energy,migration, educational opportunities, and thebattle againsttheillegal drug trade.[2]",2001,16.735377,-92.63873
2,April 20–22,USA,"Washington, DC",Start in DC,2001,38.9072,-77.0369
2,April 20–22,Canada,Quebec City,Attended the3rd Summit of the Americas.,2001,46.8137431,-71.2084061
3,June 12–13,USA,"Washington, DC",Start in DC,2001,38.9072,-77.0369
3,June 12–13,Spain,Madrid,Met with KingJuan Carlos Iat theRoyal Palace of Madridand later with Prime MinisterJosé María Aznarat thePalace of Moncloa. The President stayed at the Hotel Miguel Angel during his overnight visit.,2001,40.4167047,-3.7035825
3,June 13–14,Belgium,Brussels,Attended theNATO Summit Meeting. Met with KingAlbert IIand Prime MinisterGuy Verhofstadt. The President visitedChocolatier Maryduring his visit.,2001,50.8465573,4.351697
3,June 14–15,Sweden,Gothenburg,"Attended the U.S.-EU Summit Meeting. Met with KingCarl XVI Gustafand Prime MinisterGöran Persson, becoming the first U.S. president to visit the country. The President stayed at the Radisson Blu Scandinavia Hotel during his overnight visit.",2001,57.7072326,11.9670171
3,June 15–16,Poland,Warsaw,State Visit. Met with PresidentAleksander Kwaśniewskiat thePresidential Palaceand Prime MinisterJerzy Buzek. The President delivered a foreign policy speech in front of faculty and students atWarsaw Universityduring his visit. He also participated in a wreath-laying ceremony at theTomb of the Unknown SoldierinPiłsudski Square. The President stayed at the Warsaw Marriott Hotel during his overnight visit.,2001,52.2319581,21.0067249
3,June 16,Slovenia,Kranj,Attended thesummit meetingwith Russian presidentVladimir Putin. Also met with Prime MinisterJanez Drnovšek.,2001,46.2432913,14.3549353
4,July 18–20,USA,"Washington, DC",Start in DC,2001,38.9072,-77.0369
4,July 18–20,United Kingdom,London,"President and Mrs. Bush arrived in London on the evening of July 18. On July 19, the President met with M.P.William Hague, Leader of the Conservative Party, atWinfield House. President and Mrs. Bush later attended an event for children at theBritish Museum. The President also visited theChurchill War Roomsmuseum.  In the afternoon, President and Mrs. Bush participated in an arrival ceremony atBuckingham Palaceand attended a luncheon hosted byQueen Elizabeth. They later traveled toChequersto meet with Prime MinisterTony Blairand his wifeCheriebefore spending the night at the prime minister's country estate.",2001,51.5074456,-0.1277653
4,July 18–20,United Kingdom,Chequers,"President and Mrs. Bush arrived in London on the evening of July 18. On July 19, the President met with M.P.William Hague, Leader of the Conservative Party, atWinfield House. President and Mrs. Bush later attended an event for children at theBritish Museum. The President also visited theChurchill War Roomsmuseum.  In the afternoon, President and Mrs. Bush participated in an arrival ceremony atBuckingham Palaceand attended a luncheon hosted byQueen Elizabeth. They later traveled toChequersto meet with Prime MinisterTony Blairand his wifeCheriebefore spending the night at the prime minister's country estate.",2001,51.8533018,-2.2275661
4,July 18–20,United Kingdom,Halton,"President and Mrs. Bush arrived in London on the evening of July 18. On July 19, the President met with M.P.William Hague, Leader of the Conservative Party, atWinfield House. President and Mrs. Bush later attended an event for children at theBritish Museum. The President also visited theChurchill War Roomsmuseum.  In the afternoon, President and Mrs. Bush participated in an arrival ceremony atBuckingham Palaceand attended a luncheon hosted byQueen Elizabeth. They later traveled toChequersto meet with Prime MinisterTony Blairand his wifeCheriebefore spending the night at the prime minister's country estate.",2001,53.3538525,-2.7427829
4,July 18–20,United Kingdom,Brize Norton,"President and Mrs. Bush arrived in London on the evening of July 18. On July 19, the President met with M.P.William Hague, Leader of the Conservative Party, atWinfield House. President and Mrs. Bush later attended an event for children at theBritish Museum. The President also visited theChurchill War Roomsmuseum.  In the afternoon, President and Mrs. Bush participated in an arrival ceremony atBuckingham Palaceand attended a luncheon hosted byQueen Elizabeth. They later traveled toChequersto meet with Prime MinisterTony Blairand his wifeCheriebefore spending the night at the prime minister's country estate.",2001,51.7664356,-1.5664074
4,July 20–24,Italy,Genoa,Attended the27th G8 summit.  Met withPope John Paul II. Also met with Prime MinisterSilvio Berlusconiand PresidentCarlo Azeglio Ciampi.,2001,44.40726,8.9338624
4,July 20–24,Italy,Castel Gandolfo,Attended the27th G8 summit.  Met withPope John Paul II. Also met with Prime MinisterSilvio Berlusconiand PresidentCarlo Azeglio Ciampi.,2001,41.7425222,12.6488774
4,July 20–24,Italy,Rome,Attended the27th G8 summit.  Met withPope John Paul II. Also met with Prime MinisterSilvio Berlusconiand PresidentCarlo Azeglio Ciampi.,2001,41.8933203,12.4829321
4,July 24,Kosovo,Camp Bondsteel,Addressed U.S. military personnel.,2001,42.3644092,21.2457842
5,October 18–21,USA,"Washington, DC",Start in DC,2001,38.9072,-77.0369
5,October 18–21,China,Shanghai,AttendedAPEC Summit Meeting.,2001,31.2312707,121.4700152
6,February 16–19,USA,"Washington, DC",Start in DC,2002,38.9072,-77.0369
6,February 16–19,Japan,Tokyo,Met with EmperorAkihitoand Prime MinisterJunichiro Koizumi. Addressed theDiet.,2002,35.6768601,139.7638947
6,February 19–21,South Korea,Seoul,Met with PresidentKim Dae-jung. Visited theKorean Demilitarized Zone. Addressed U.S. military personnel.,2002,37.5666791,126.9782914
6,February 19–21,South Korea,Dorasan,Met with PresidentKim Dae-jung. Visited theKorean Demilitarized Zone. Addressed U.S. military personnel.,2002,37.8983887,126.7091637
6,February 19–21,South Korea,Osan,Met with PresidentKim Dae-jung. Visited theKorean Demilitarized Zone. Addressed U.S. military personnel.,2002,37.1499376,127.0774625
6,February 21–22,China,Beijing,Met with PresidentJiang Zeminand PremierZhu Rongji.,2002,40.190632,116.412144
7,March 21–22,USA,"Washington, DC",Start in DC,2002,38.9072,-77.0369
7,March 21–22,Mexico,Monterrey,Attended theInternational Conference on Financing for Development. Met with PresidentVicente Fox.,2002,25.6802019,-100.315258
7,March 23–24,Peru,Lima,"Met with the presidentsAlejandro Toledoof Peru,Andrés Pastrana Arangoof Colombia, andJorge Quirogaof  Bolivia, and with the vice presidentPedro Pinto Rubianesof Ecuador.",2002,-12.0621065,-77.0365256
7,March 24,El Salvador,San Salvador,Attended the Summit Meeting of Presidents of the Central American Republics.,2002,13.6989939,-89.1914249
8,May 22–23,USA,"Washington, DC",Start in DC,2002,38.9072,-77.0369
8,May 22–23,Germany,Berlin,Met with ChancellorGerhard Schröder. Addressed theBundestag.,2002,52.510885,13.3989367
8,May 23–26,Russia,Moscow,Summit meeting with President Vladimir Putin. SignedStrategic Offensive Reductions Treaty.,2002,55.625578,37.6063916
8,May 23–26,Russia,St. Petersburg,Summit meeting with President Vladimir Putin. SignedStrategic Offensive Reductions Treaty.,2002,59.938732,30.316229
8,May 26–27,France,Paris,Met with PresidentJacques Chirac. Delivered aMemorial Dayaddress in Normandy.,2002,48.8588897,2.320041
8,May 26–27,France,Sainte-Mère-Église,Met with PresidentJacques Chirac. Delivered aMemorial Dayaddress in Normandy.,2002,49.4117704,-1.3268248
8,May 26–27,France,Colleville,Met with PresidentJacques Chirac. Delivered aMemorial Dayaddress in Normandy.,2002,49.7492373,0.452349
8,May 27–28,Italy,Rome,Met with President Carlo Azeglio Ciampi and Prime Minister Silvio Berlusconi. Attended theNATO Summit Meetingand inaugurated theNATO-Russia Council.,2002,41.8933203,12.4829321
8,May 28,Vatican City,Apostolic Palace,Audience with Pope John Paul II.,2002,41.9032459,12.4551867
9,June 25–27,USA,"Washington, DC",Start in DC,2002,38.9072,-77.0369
9,June 25–27,Canada,Kananaskis,Attended the28th G8 summit.,2002,50.7010061,-114.8537453
10,October 26–27,USA,"Washington, DC",Start in DC,2002,38.9072,-77.0369
10,October 26–27,Mexico,Los Cabos,Attended theAPEC Summit Meeting.,2002,21.166121,-100.936442
11,November 19–22,USA,"Washington, DC",Start in DC,2002,38.9072,-77.0369
11,November 19–22,Czech Republic,Prague,Attended theNATOandEAPCSummit Meetings.,2002,50.0596288,14.4464593
11,November 22,Russia,St. Petersburg,Met with President Vladimir Putin.,2002,59.938732,30.316229
11,November 22–23,Lithuania,Vilnius,"Met with the Presidents of the Baltic states, becoming the first U.S. president to visit the country.",2002,54.6870458,25.2829111
11,November 23,Romania,Bucharest,Met with PresidentIon Iliescu.,2002,44.4361414,26.1027202
12,March 16,USA,"Washington, DC",Start in DC,2003,38.9072,-77.0369
12,March 16,Portugal,Terceira Island,"Discussed the Iraq crisis with British prime minister Tony Blair, Spanish prime minister José María Aznar and Portuguese prime ministerJosé Manuel Barroso.",2003,38.71667,-27.21667
13,April 7–8,USA,"Washington, DC",Start in DC,2003,38.9072,-77.0369
13,April 7–8,United Kingdom,Belfast,Met with Prime Minister Tony Blair to discuss the reconstruction of Iraq. Also met withTaoiseachBertie Ahernand Northern Irish political leaders.,2003,54.596391,-5.9301829
13,April 7–8,United Kingdom,Hillsborough,Met with Prime Minister Tony Blair to discuss the reconstruction of Iraq. Also met withTaoiseachBertie Ahernand Northern Irish political leaders.,2003,53.4113789,-1.5006311
14,May 31,USA,"Washington, DC",Start in DC,2003,38.9072,-77.0369
14,May 31,Poland,Kraków,Met with President Aleksander Kwaśniewski and Prime MinisterLeszek Miller. VisitedNazi-GermanAuschwitz concentration camp.,2003,50.0619474,19.9368564
14,May 31,Poland,Oświęcim,Met with President Aleksander Kwaśniewski and Prime MinisterLeszek Miller. VisitedNazi-GermanAuschwitz concentration camp.,2003,50.0382443,19.2214053
14,May 31 – June 1,Russia,St. Petersburg,Met with President Vladimir Putin. Attended ceremonies commemorating the city's 300th anniversary.,2003,59.938732,30.316229
14,June 1–2,France,Evian-les-Bains,Attended the29th G8 summit. Met with Chinese presidentHu Jintao.,2003,46.400979,6.5897931
14,June 2–3,Egypt,Sharm el-Sheikh,"Attended the ""Red Sea Summit"" with the leaders of Bahrain, Egypt, Jordan and Saudi Arabia, and with Palestinian Authority Prime MinisterMahmoud Abbas.",2003,27.8644422,34.295447
14,June 4,Jordan,Aqaba,Attended meetings with Israeli prime ministerAriel Sharonand Palestinian prime minister Mahmoud Abbas. Met with KingAbdullah II.,2003,29.5266483,35.0075433
14,June 4–5,Qatar,Doha,"Met with EmirHamad bin Khalifa Al Thani. VisitedU.S. Central Commandheadquarters and addressed U.S. military personnel, becoming the first U.S. president to visit the country.",2003,25.2856329,51.5264162
15,July 8,USA,"Washington, DC",Start in DC,2003,38.9072,-77.0369
15,July 8,Senegal,Dakar,Met with PresidentAbdoulaye Wade.,2003,14.693425,-17.447938
15,July 8,Senegal,Gorée Island,Met with PresidentAbdoulaye Wade.,2003,14.6672047,-17.3983563
15,July 8–11,South Africa,Pretoria,Met with PresidentThabo Mbeki.,2003,-25.7459277,28.1879101
15,July 10,Botswana,Gaborone,Met with PresidentFestus Mogae. TouredMokolodi Nature Reserve.,2003,-24.6581357,25.9088474
15,July 11,Uganda,Kampala,Met with PresidentYoweri Museveni.,2003,0.3177137,32.5813539
15,July 11–12,Nigeria,Abuja,Met with PresidentOlusegun Obasanjo.,2003,9.0643305,7.4892974
16,October 17–18,USA,"Washington, DC",Start in DC,2003,38.9072,-77.0369
16,October 17–18,Japan,Tokyo,Met with Prime Minister Junichiro Koizumi.,2003,35.6768601,139.7638947
16,October 18–19,Philippines,Manila,Addressed a joint session of thePhilippine Congressand met with PresidentGloria Macapagal Arroyo.,2003,14.5904492,120.9803621
16,October 18–21,Thailand,Bangkok,Attended theAPEC Summit Meeting.,2003,13.7524938,100.4935089
16,October 21–22,Singapore,Singapore,Met with Prime MinisterGoh Chok Tong.,2003,1.2899175,103.8519072
16,October 22,Indonesia,Denpasar,Met with PresidentMegawati Sukarnoputriand Muslim religious leaders.,2003,-8.6524973,115.2191175
16,October 22,Australia,Canberra,Met with Prime MinisterJohn Howard.Addressed joint meeting of Parliament.,2003,-35.2975906,149.1012676
17,November 18–21,USA,"Washington, DC",Start in DC,2003,38.9072,-77.0369
17,November 18–21,United Kingdom,London,State Visit. Met with Queen Elizabeth II and Prime Minister Tony Blair.,2003,51.5074456,-0.1277653
17,November 18–21,United Kingdom,Sedgefield,State Visit. Met with Queen Elizabeth II and Prime Minister Tony Blair.,2003,54.6531916,-1.4496577
18,November 27,USA,"Washington, DC",Start in DC,2003,38.9072,-77.0369
18,November 27,Iraq,Baghdad,"The President travelled in secret fromhis ranchin Texas toAndrews Air Force Base, where reporters were told not to use their devices or leak news of the trip, and then toIraq.[3]Met with members of theCoalition Provisional Authorityand theIraqi Governing Council, becoming the first U.S. president to visit the country. Addressed U.S. military personnel.",2003,33.3061701,44.3872213
19,January 12–13,USA,"Washington, DC",Start in DC,2004,38.9072,-77.0369
19,January 12–13,Mexico,Monterrey,Attended theSpecial Summit of the Americas.,2004,25.6802019,-100.315258
20,June 4–5,USA,"Washington, DC",Start in DC,2004,38.9072,-77.0369
20,June 4–5,Italy,Rome,Met with President Carlo Azeglio Ciampi and Prime Minister Silvio Berlusconi.,2004,41.8933203,12.4829321
20,June 4,Vatican City,Apostolic Palace,Met with Pope John Paul II.,2004,41.9032459,12.4551867
20,June 5–6,France,Paris,Met with President Jacques Chirac. Attended the 60th anniversary ofD-Dayceremonies.,2004,48.8588897,2.320041
20,June 5–6,France,Colleville,Met with President Jacques Chirac. Attended the 60th anniversary ofD-Dayceremonies.,2004,49.7492373,0.452349
20,June 5–6,France,Caen,Met with President Jacques Chirac. Attended the 60th anniversary ofD-Dayceremonies.,2004,49.1813403,-0.3635615
20,June 5–6,France,Arromanches,Met with President Jacques Chirac. Attended the 60th anniversary ofD-Dayceremonies.,2004,49.3369603,-0.6221294
21,June 25–26,USA,"Washington, DC",Start in DC,2004,38.9072,-77.0369
21,June 25–26,Ireland,Shannon,Attended the U.S.-EU Summit Meeting. Met with TaoiseachBertie Ahern.,2004,53.1349614,-8.1611027
21,June 25–26,Ireland,Dromoland Castle,Attended the U.S.-EU Summit Meeting. Met with TaoiseachBertie Ahern.,2004,52.7835769,-8.9056991
21,June 26–29,Turkey,Ankara,Met with PresidentAhmet Necdet Sezerand Prime MinisterRecep Tayyip Erdoğan. Attended theNATO Summit meeting.,2004,39.9207759,32.8540497
21,June 26–29,Turkey,Istanbul,Met with PresidentAhmet Necdet Sezerand Prime MinisterRecep Tayyip Erdoğan. Attended theNATO Summit meeting.,2004,41.006381,28.9758715
22,November 19–22,USA,"Washington, DC",Start in DC,2004,38.9072,-77.0369
22,November 19–22,Chile,Santiago,Attended theAPEC Summit Meeting.,2004,-33.4377756,-70.6504502
22,November 22,Colombia,Cartagena,Met with PresidentÁlvaro Uribe.,2004,10.4265566,-75.5441671
23,November 30 – December 1,USA,"Washington, DC",Start in DC,2004,38.9072,-77.0369
23,November 30 – December 1,Canada,Ottawa,"Met withLieutenant Governor of Nova ScotiaMyra Freemanand Prime MinisterPaul Martin. The President spent the night atLornado, the official residence of the U.S. ambassador in Ottawa, before traveling to Halifax to thank Canadians for their hospitality inhosting stranded Americans on September 11, 2001.[4]",2004,45.4208777,-75.6901106
23,November 30 – December 1,Canada,Gatineau,"Met withLieutenant Governor of Nova ScotiaMyra Freemanand Prime MinisterPaul Martin. The President spent the night atLornado, the official residence of the U.S. ambassador in Ottawa, before traveling to Halifax to thank Canadians for their hospitality inhosting stranded Americans on September 11, 2001.[4]",2004,45.4277659,-75.710976
23,November 30 – December 1,Canada,Halifax,"Met withLieutenant Governor of Nova ScotiaMyra Freemanand Prime MinisterPaul Martin. The President spent the night atLornado, the official residence of the U.S. ambassador in Ottawa, before traveling to Halifax to thank Canadians for their hospitality inhosting stranded Americans on September 11, 2001.[4]",2004,44.648618,-63.5859487
24,February 20–23,USA,"Washington, DC",Start in DC,2005,38.9072,-77.0369
24,February 20–23,Belgium,Brussels,Attended theNATOand EU Summit Meetings.,2005,50.8465573,4.351697
24,February 23,Germany,Mainz,Met with Chancellor Gerhard Schröder. Visited U.S. military personnel.,2005,49.9995205,8.2736253
24,February 23,Germany,Wiesbaden,Met with Chancellor Gerhard Schröder. Visited U.S. military personnel.,2005,50.0820384,8.2416556
24,February 23–24,Slovakia,Bratislava,"Attended thesummit meetingwith Russian president Vladimir Putin, becoming the first U.S. president to visit the country. Also met with Prime MinisterMikuláš Dzurinda.",2005,48.1516988,17.1093063
25,April 6–8,USA,"Washington, DC",Start in DC,2005,38.9072,-77.0369
25,April 6–8,Vatican City,St. Peter's Basilica,Attended thefuneral of Pope John Paul II.,2005,41.9021569,12.4537105
25,"April 6–8, 2005",Italy,Rome,Met with President Carlo Azeglio Ciampi and Prime Minister Silvio Berlusconi.,2005,41.8933203,12.4829321
26,May 6–7,USA,"Washington, DC",Start in DC,2005,38.9072,-77.0369
26,May 6–7,Latvia,Riga,Met with the Presidents of the Baltic states.,2005,56.9493977,24.1051846
26,May 7–8,Netherlands,Maastricht,"Met with Prime MinisterJan Peter Balkenende. Delivered address at theNetherlands American Cemetery, marking the 60th anniversary of theend of World War II in Europe.[5]",2005,50.8512438,5.6909768
26,May 7–8,Netherlands,Valkenburg,"Met with Prime MinisterJan Peter Balkenende. Delivered address at theNetherlands American Cemetery, marking the 60th anniversary of theend of World War II in Europe.[5]",2005,50.8647531,5.8312518
26,May 7–8,Netherlands,Margraten,"Met with Prime MinisterJan Peter Balkenende. Delivered address at theNetherlands American Cemetery, marking the 60th anniversary of theend of World War II in Europe.[5]",2005,50.8201564,5.8216625
26,May 8–9,Russia,Moscow,Met with President Vladimir Putin. Attended the 60th anniversary ofVE Dayceremonies.,2005,55.625578,37.6063916
26,May 9–10,Georgia,Tbilisi,"Met with PresidentMikheil Saakashvili, becoming the first U.S. president to visit the country.",2005,41.6934591,44.8014495
27,July 5–6,USA,"Washington, DC",Start in DC,2005,38.9072,-77.0369
27,July 5–6,Denmark,Kastrup,Met with QueenMargrethe IIand Prime MinisterAnders Fogh Rasmussen.,2005,55.6357222,12.6469508
27,July 5–6,Denmark,Fredensborg,Met with QueenMargrethe IIand Prime MinisterAnders Fogh Rasmussen.,2005,55.9821565,12.3950911
27,July 5–6,Denmark,Copenhagen,Met with QueenMargrethe IIand Prime MinisterAnders Fogh Rasmussen.,2005,55.6867243,12.5700724
27,July 6–8,United Kingdom,Gleneagles,Attended the31st G8 summit.,2005,56.2749283,-3.7309953
28,November 3–5,USA,"Washington, DC",Start in DC,2005,38.9072,-77.0369
28,November 3–5,Argentina,Mar del Plata,Attended the4th Summit of the Americas. Met with PresidentNestor Kirchner.,2005,-37.9976168,-57.5482079
28,November 5–6,Brazil,Brasília,Met with PresidentLuiz Inácio Lula da Silva.,2005,-10.3333333,-53.2
28,November 6–7,Panama,Panama City,Met with PresidentMartín Torrijos.,2005,8.9714493,-79.5341802
29,November 15–16,USA,"Washington, DC",Start in DC,2005,38.9072,-77.0369
29,November 15–16,Japan,Kyoto,Met with Prime Minister Junichiro Koizumi.,2005,35.0115754,135.7681441
29,November 16–20,South Korea,Pusan,Attended theAPEC Summit Meeting. Met with Russian President Vladimir Putin. Addressed U.S. military personnel.,2005,35.1799528,129.0752365
29,November 16–20,South Korea,Gyeongju,Attended theAPEC Summit Meeting. Met with Russian President Vladimir Putin. Addressed U.S. military personnel.,2005,35.8556705,129.2248811
29,November 16–20,South Korea,Osan,Attended theAPEC Summit Meeting. Met with Russian President Vladimir Putin. Addressed U.S. military personnel.,2005,37.1499376,127.0774625
29,November 20–21,China,Beijing,Met with President Hu Jintao and PremierWen Jiabao.,2005,40.190632,116.412144
29,November 21,Mongolia,Ulaanbaatar,"Met with PresidentNambaryn Enkhbayarand Prime MinisterTsakhiagiin Elbegdorj, becoming the first U.S. president to visit the country.",2005,47.9184676,106.9177016
30,February 28,USA,"Washington, DC",Start in DC,2006,38.9072,-77.0369
30,February 28,Ireland,Shannon,Met with U.S. Marines who were en route to Iraq.,2006,53.1349614,-8.1611027
30,March 1,Afghanistan,Bagram,Met with PresidentHamid Karzai. Dedicated new U.S. Embassy. Addressed U.S. military personnel.,2006,34.9333734,69.2341077
30,March 1,Afghanistan,Kabul,Met with PresidentHamid Karzai. Dedicated new U.S. Embassy. Addressed U.S. military personnel.,2006,34.5266431,69.1849082
30,March 1–3,India,New Delhi,Met with Prime MinisterManmohan Singh. SignedU.S.-India Civil Nuclear Agreement.,2006,28.6430858,77.2192671
30,March 1–3,India,Hyderabad,Met with Prime MinisterManmohan Singh. SignedU.S.-India Civil Nuclear Agreement.,2006,17.360589,78.4740613
30,March 3–4,Pakistan,Islamabad,Met with PresidentPervez Musharraf.,2006,33.6938118,73.0651511
31,March 30–31,USA,"Washington, DC",Start in DC,2006,38.9072,-77.0369
31,March 30–31,Mexico,Cancún,Attended the 2ndNorth American Leaders' Summitwith President Vincente Fox and Canadianprime ministerStephen Harper; visited the Chichen-Itzaarchaeological site.,2006,21.1527467,-86.8425761
31,March 30–31,Mexico,Chichen-Itza,Attended the 2ndNorth American Leaders' Summitwith President Vincente Fox and Canadianprime ministerStephen Harper; visited the Chichen-Itzaarchaeological site.,2006,20.66667,-88.56667
32,June 13,USA,"Washington, DC",Start in DC,2006,38.9072,-77.0369
32,June 13,Iraq,Baghdad,Met with Prime MinisterNouri al-Maliki. Addressed U.S. military personnel.,2006,33.3061701,44.3872213
33,June 20–21,USA,"Washington, DC",Start in DC,2006,38.9072,-77.0369
33,June 20–21,Austria,Vienna,Attended the U.S.-EU Summit Meeting.,2006,48.2083537,16.3725042
33,June 21–22,Hungary,Budapest,Met with PresidentLászló Sólyomand  Prime MinisterFerenc Gyurcsány. Attended the 50th anniversary of theHungarian Uprising.,2006,47.4978789,19.0402383
34,July 12–14,USA,"Washington, DC",Start in DC,2006,38.9072,-77.0369
34,July 12–14,Germany,Stralsund,Met with ChancellorAngela Merkel.,2006,54.3096314,13.0820846
34,July 12–14,Germany,Trinwillershagen,Met with ChancellorAngela Merkel.,2006,54.2504397,12.6260361
34,July 14–17,Russia,St. Petersburg,"Attended the32nd G8 summit. Met with Chinese President Hu Jintao, Brazilian President Luiz Inácio Lula da Silva and Indian Prime Minister Manmohan Singh.",2006,59.938732,30.316229
35,November 15,USA,"Washington, DC",Start in DC,2006,38.9072,-77.0369
35,November 15,Russia,Moscow,Met with President Vladimir Putin.,2006,55.625578,37.6063916
35,November 16–17,Singapore,Singapore,"Met with the chairman of the Singapore Council of Presidential Advisers,J. Y. Pillayand Prime MinisterLee Hsien Loong. AddressedNational University of Singapore.",2006,1.2899175,103.8519072
35,November 17–20,Vietnam,Hanoi,Attended theAPEC Summit Meeting.,2006,21.0283334,105.854041
35,November 17–20,Vietnam,Ho Chi Minh City,Attended theAPEC Summit Meeting.,2006,10.7763897,106.7011391
35,November 20,Indonesia,Jakarta,Met with PresidentSusilo Bambang Yudhoyono.,2006,-6.1754049,106.827168
35,November 20,Indonesia,Bogor,Met with PresidentSusilo Bambang Yudhoyono.,2006,-6.5962986,106.7972421
36,November 27–28,USA,"Washington, DC",Start in DC,2006,38.9072,-77.0369
36,November 27–28,Estonia,Tallinn,"Met with PresidentToomas Hendrik Ilves, becoming the first U.S. president to visit the country.",2006,59.4372155,24.7453688
36,November 28–29,Latvia,Riga,Attended theNATO Summit Meeting.,2006,56.9493977,24.1051846
36,November 29–30,Jordan,Amman,Met with King Abdullah II and Iraqi Prime Minister Nouri al-Maliki.,2006,31.9515694,35.9239625
37,March 8–9,USA,"Washington, DC",Start in DC,2007,38.9072,-77.0369
37,March 8–9,Brazil,São Paulo,Met with President Luiz Inácio Lula da Silva.,2007,-23.5506507,-46.6333824
37,March 9–11,Uruguay,Montevideo,Met with PresidentTabaré Vázquez.,2007,-34.9058916,-56.1913095
37,March 11,Colombia,Bogotá,Met with President Álvaro Uribe.,2007,4.711011,-74.0720917
37,March 11–12,Guatemala,Guatemala City,Informal visit; met with PresidentÓscar Berger; visited the Iximche archaeological site.,2007,14.6416142,-90.5132836
37,March 11–12,Guatemala,Santa Cruz Balanyá,Informal visit; met with PresidentÓscar Berger; visited the Iximche archaeological site.,2007,14.6918883,-90.9263636
37,March 11–12,Guatemala,Iximche,Informal visit; met with PresidentÓscar Berger; visited the Iximche archaeological site.,2007,14.7676876,-90.9914686
37,March 12–14,Mexico,Mérida,Met with PresidentFelipe Calderón; visited the Uxmal archaeological site.,2007,20.9670759,-89.6237402
37,March 12–14,Mexico,Uxmal,Met with PresidentFelipe Calderón; visited the Uxmal archaeological site.,2007,20.3602902,-89.7705605
38,June 4–5,USA,"Washington, DC",Start in DC,2007,38.9072,-77.0369
38,June 4–5,Czech Republic,Prague,Met with PresidentVáclav Klausand Prime MinisterMirek Topolánek. Addressed Conference on Democracy and Security.,2007,50.0596288,14.4464593
38,June 5–8,Germany,Heiligendamm,Attended the33rd G8 summit. Met with Chinese President Hu Jintao.,2007,54.1423664,11.842199
38,June 8,Poland,Gdańsk,Met with PresidentLech Kaczyński.,2007,54.3482907,18.6540233
38,June 8,Poland,Jurata,Met with PresidentLech Kaczyński.,2007,54.6849444,18.7134138
38,June 8–10,Italy,Rome,Met with PresidentGiorgio Napolitanoand Prime MinisterRomano Prodi.,2007,41.8933203,12.4829321
38,June 9,Vatican City,Apostolic Palace,Audience withPope Benedict XVI.,2007,41.9032459,12.4551867
38,June 10,Albania,Tirana,"Met with PresidentAlfred Moisiuand Prime MinisterSali Berisha, becoming the first U.S. president to visit the country.",2007,41.3281482,19.8184435
38,June 10–11,Bulgaria,Sofia,Met with PresidentGeorgi Parvanovand Prime MinisterSergei Stanishev.,2007,42.6977028,23.3217359
39,August 20–21,USA,"Washington, DC",Start in DC,2007,38.9072,-77.0369
39,August 20–21,Canada,Montebello,AttendedNorth American Leaders' Summitwith Prime Minister Stephen Harper and Mexican presidentFelipe Calderón.,2007,45.6512171,-74.942673
40,September 3,USA,"Washington, DC",Start in DC,2007,38.9072,-77.0369
40,September 3,Iraq,Al Asad Airbase,"Met with Gen.David Petraeus, Secretary of StateCondoleezza Rice, Secretary of DefenseRobert Gates, senior U.S. officials, Iraqi political leaders. Addressed U.S military personnel.",2007,33.7984496,42.4372455
40,September 3–8,Australia,Sydney,Attended theAPEC Summit Meeting.,2007,-33.8698439,151.2082848
41,January 9–11,USA,"Washington, DC",Start in DC,2008,38.9072,-77.0369
41,January 9–11,Israel,Tel Aviv,Met with Prime MinisterEhud Olmertand PresidentShimon Peres. VisitedYad Vashem.,2008,32.0852997,34.7818064
41,January 9–11,Israel,Jerusalem,Met with Prime MinisterEhud Olmertand PresidentShimon Peres. VisitedYad Vashem.,2008,31.7788242,35.2257626
41,January 11–12,Kuwait,Kuwait City,Attended Roundtable on Democracy and Development. Met with Gen. David Petraeus andUnited States Ambassador to IraqRyan Crocker. Addressed U.S. military personnel.,2008,29.3796532,47.9734174
41,January 11–12,Kuwait,Camp Arifjan,Attended Roundtable on Democracy and Development. Met with Gen. David Petraeus andUnited States Ambassador to IraqRyan Crocker. Addressed U.S. military personnel.,2008,28.898956,48.1504607
41,January 12–13,Bahrain,Manama,"Met with KingHamad bin Isa Al Khalifa. Addressed U.S. military personnel, becoming the first U.S. president to visit the country.",2008,26.2235041,50.5822436
41,January 13–14,United Arab Emirates,Abu Dhabi,"Met with PresidentKhalifa bin Zayed Al Nahyanand Prime MinisterMohammed bin Rashid Al Maktoum, becoming the first U.S. president to visit the country.",2008,24.4538352,54.3774014
41,January 13–14,United Arab Emirates,Dubai,"Met with PresidentKhalifa bin Zayed Al Nahyanand Prime MinisterMohammed bin Rashid Al Maktoum, becoming the first U.S. president to visit the country.",2008,25.0742823,55.1885387
41,January 14–16,Saudi Arabia,Riyadh,Met with KingAbdullah.,2008,24.638916,46.7160104
41,January 14–16,Saudi Arabia,Al-Janadriyah,Met with KingAbdullah.,2008,24.8947047,46.8425606
41,January 16,Egypt,Sharm el-Sheikh,Met with PresidentHosni Mubarak.,2008,27.8644422,34.295447
42,February 16,USA,"Washington, DC",Start in DC,2008,38.9072,-77.0369
42,February 16,Benin,Porto Novo,"Met with PresidentYayi Boni, becoming the first U.S. president to visit the country.",2008,6.4990718,2.6253361
42,February 16–19,Tanzania,Dar es Salaam,Met with PresidentJakaya Kikwete. SignedMillenimum Challengeagreement.,2008,-6.8160837,39.2803583
42,February 16–19,Tanzania,Arusha,Met with PresidentJakaya Kikwete. SignedMillenimum Challengeagreement.,2008,-3.3696827,36.6880794
42,February 19,Rwanda,Kigali,Met with PresidentPaul Kagame. Dedicated new U.S. Embassy.,2008,-1.8859597,30.1296751
42,February 19–21,Ghana,Accra,Met with PresidentJohn Kufuor.,2008,5.5571096,-0.2012376
42,February 21,Liberia,Monrovia,Met with PresidentEllen Johnson Sirleaf.,2008,6.328034,-10.797788
43,April 1,USA,"Washington, DC",Start in DC,2008,38.9072,-77.0369
43,April 1,Ukraine,Kyiv,Met with PresidentViktor Yushchenkoand Prime MinisterYulia Tymoshenko.,2008,50.4500336,30.5241361
43,April 2–4,Romania,Bucharest,Attended theNATO Summit Meeting.,2008,44.4361414,26.1027202
43,April 4–5,Croatia,Zagreb,Met with PresidentStjepan Mesić.,2008,45.8130967,15.9772795
43,April 5–6,Russia,Sochi,Met with President Vladimir Putin and President-electDmitry Medvedev.,2008,43.5854823,39.723109
44,May 14–16,USA,"Washington, DC",Start in DC,2008,38.9072,-77.0369
44,May 14–16,Israel,Tel Aviv,Met with President Shimon Peres and Prime Minister Ehud Olmert. Addressed theKnesset. Attended Israel's 60th anniversary. Visited the Masada fortification site.,2008,32.0852997,34.7818064
44,May 14–16,Israel,Jerusalem,Met with President Shimon Peres and Prime Minister Ehud Olmert. Addressed theKnesset. Attended Israel's 60th anniversary. Visited the Masada fortification site.,2008,31.7788242,35.2257626
44,May 14–16,Israel,Masada,Met with President Shimon Peres and Prime Minister Ehud Olmert. Addressed theKnesset. Attended Israel's 60th anniversary. Visited the Masada fortification site.,2008,31.3156403,35.3538943
44,May 16–17,Saudi Arabia,Riyadh,Met with King Abdullah.,2008,24.638916,46.7160104
44,May 16–17,Saudi Arabia,al-Janadriyah,Met with King Abdullah.,2008,24.8947047,46.8425606
44,May 17–18,Egypt,Sharm el-Sheikh,"Met with President Hosni Mubarak, King Abdullah II of Jordan, Palestinian Authority president Mahmoud Abbas and Prime MinisterSalam Fayyad, Afghan president Hamid Karzai and Pakistani prime ministerYousaf Raza Gillani. Addressed theWorld Economic Forum.",2008,27.8644422,34.295447
45,June 9–10,USA,"Washington, DC",Start in DC,2008,38.9072,-77.0369
45,June 9–10,Slovenia,Ljubljana,Met with PresidentDanilo Türkand Prime MinisterJanez Janša. Attended the EU-US Summit Meeting.,2008,46.0500268,14.5069289
45,June 10–11,Germany,Meseberg,Met with Chancellor Angela Merkel.,2008,52.8066153,11.8071545
45,June 11–13,Italy,Rome,Met with President Giorgio Napolitano and Prime Minister Silvio Berlusconi.,2008,41.8933203,12.4829321
45,June 13,Vatican City,Apostolic Palace,Met with Pope Benedict XVI.,2008,41.9032459,12.4551867
45,June 13–15,France,Paris,Met with PresidentNicolas Sarkozy. Addressed theOECD. Attended wreath-laying ceremonies at theSuresnes American Cemetery and MemorialandMémorial de la France combattante.,2008,48.8588897,2.320041
45,June 15–16,United Kingdom,London,"Met with Queen Elizabeth II atWindsor Castle. Met with Prime MinisterGordon Brownand Quartet Representative Tony Blair. In Belfast, met withFirst MinisterPeter Robertsonand Deputy First MinisterMartin McGuinness.",2008,51.5074456,-0.1277653
45,June 15–16,United Kingdom,Belfast,"Met with Queen Elizabeth II atWindsor Castle. Met with Prime MinisterGordon Brownand Quartet Representative Tony Blair. In Belfast, met withFirst MinisterPeter Robertsonand Deputy First MinisterMartin McGuinness.",2008,54.596391,-5.9301829
46,July 6–9,USA,"Washington, DC",Start in DC,2008,38.9072,-77.0369
46,July 6–9,Japan,Tōyako,"Attended the34th G8 summit. Met with Tanzanian president Kikwete, Indian prime minister Manmohan Singh, Chinese president Hu Jintao and South Korean presidentLee Myung-bak.",2008,42.5513253,140.7642723
47,August 5–6,USA,"Washington, DC",Start in DC,2008,38.9072,-77.0369
47,August 5–6,South Korea,Seoul,Met with President Lee Myung-bak. Addressed U.S. military personnel.,2008,37.5666791,126.9782914
47,August 6–7,Thailand,Bangkok,Met with Prime MinisterSamak Sundaravej.,2008,13.7524938,100.4935089
47,August 7–11,China,Beijing,Attended theopening ceremonies of the Olympic Games. Met with President Hu Jintao and Russian Prime Minister Vladimir Putin.,2008,40.190632,116.412144
48,November 21–23,USA,"Washington, DC",Start in DC,2008,38.9072,-77.0369
48,November 21–23,Peru,Lima,Attended theAPEC Summit Meeting.,2008,-12.0621065,-77.0365256
49,December 14,USA,"Washington, DC",Start in DC,2008,38.9072,-77.0369
49,December 14,Iraq,Baghdad,Met with PresidentJalal Talabaniand Prime Minister Nouri al-Maliki. SignedStrategic Framework and Security Agreements. Visited U.S. military personnel.,2008,33.3061701,44.3872213
49,December 14–15,Afghanistan,Kabul,Met with President Hamid Karzai. Visited U.S. military personnel.,2008,34.5266431,69.1849082
49,December 15,United Kingdom,RAF Mildenhall,Stopped during return toWashington D.C.. Met with military personnels.[6],2008,52.3626963,0.4854831