Trip Number,Date,Country,Location,Details,Year,Latitude,Longitude
1,May 20–22,USA,"Washington, DC",Start in DC,2017,38.9072,-77.0369
1,May 20–22,Saudi Arabia,Riyadh,"Met with KingSalmanand Muslim leaders at theRiyadh Summit.[1]Signed a $110 billion arms deal with Saudi Arabia,[2]and was honored with theCollar of Abdulaziz Al Saud, his first foreign order.[3]Visited, along with First LadyMelania Trump, theNational Museum of Saudi Arabia.[4]",2017,24.638916,46.7160104
1,May 22–23,Israel,Jerusalem,"Met with PresidentReuven Rivlinand Prime MinisterBenjamin Netanyahu.[1]Visited theWestern Walland theChurch of the Holy Sepulchre, the first sitting U.S. president to do so.[5]Visited theYad Vashemand delivered an address at theIsrael Museum.[6]",2017,31.7788242,35.2257626
1,May 23–24,Italy,Rome,Met with PresidentSergio Mattarellaand Prime MinisterPaolo Gentiloni.[8],2017,41.8933203,12.4829321
1,May 24,Vatican City,Vatican City,Met withPope Francis.[1][9],2017,41.9034912,12.4528349
1,May 24–25,Belgium,Brussels,"Met with KingPhilippeand Prime MinisterCharles Michel. Attended the28th NATO summitand the U.S.-EU Summit Meeting, where he also met with French presidentEmmanuel Macron.[10][11][12]",2017,50.8465573,4.351697
1,May 25–27,Italy,Taormina,Attended the43rd G7 summit. Also held a bilateral meeting with Japanese prime ministerShinzō Abe.,2017,37.8512218,15.2830191
2,July 5–6,USA,"Washington, DC",Start in DC,2017,38.9072,-77.0369
2,July 5–6,Poland,Warsaw,Met with PresidentAndrzej Dudaand Croatian presidentKolinda Grabar-Kitarovic.[13][14]Attended the 2nd summit of theThree Seas Initiative.[15]Hedelivered a speechto the People of Poland in front of theWarsaw Uprising Monumentat theKrasiński Squareto honor victims of the past Nazi occupation and communist domination in Poland.[16],2017,52.2319581,21.0067249
2,July 6–8,Germany,Hamburg,"Attended theG-20 summit.[17]Also held bilateral meetings with British prime ministerTheresa May, Chinese presidentXi Jinping, German chancellorAngela Merkel, Indonesian presidentJoko Widodo, Japanese prime ministerShinzō Abe, Mexican presidentEnrique Peña Nieto, Russian presidentVladimir Putinand Singaporean prime ministerLee Hsien Loong.[18][19][20]",2017,53.550341,10.000654
3,July 13–14,USA,"Washington, DC",Start in DC,2017,38.9072,-77.0369
3,July 13–14,France,Paris,Met with PresidentEmmanuel Macron.[21]Participated in theBastille Daycelebrations marking the 100th anniversary of theentry of the United StatesintoWorld War I.[22],2017,48.8588897,2.320041
4,November 5–7,USA,"Washington, DC",Start in DC,2017,38.9072,-77.0369
4,November 5–7,Japan,Kawagoe,Met with EmperorAkihitoand Prime MinisterShinzō Abe.,2017,35.9251145,139.4856927
4,November 5–7,Japan,Tokyo,Met with EmperorAkihitoand Prime MinisterShinzō Abe.,2017,35.6768601,139.7638947
4,November 7–8,South Korea,Osan,"State visit. Met with South Korean presidentMoon Jae-in, and addressed the South Korean National Assembly. Also met with troops from theEighth United States ArmyatCamp Humphreys.[23]This was the president's first trip to a U.S. combat zone.",2017,37.1499376,127.0774625
4,November 7–8,South Korea,Seoul,"State visit. Met with South Korean presidentMoon Jae-in, and addressed the South Korean National Assembly. Also met with troops from theEighth United States ArmyatCamp Humphreys.[23]This was the president's first trip to a U.S. combat zone.",2017,37.5666791,126.9782914
4,November 8–10,China,Beijing,State visit.[24]President Trump arrived inBeijingto meet with General Secretary and PresidentXi Jinpingand PremierLi Keqiang.,2017,40.190632,116.412144
4,November 10–12,Vietnam,Da Nang,"State visit. Met with PresidentTrần Đại Quang, Prime MinisterNguyễn Xuân Phúcand Communist Party general secretaryNguyễn Phú Trọng. Attended theAPEC Vietnam 2017.[25][26]",2017,16.068,108.212
4,November 10–12,Vietnam,Hanoi,"State visit. Met with PresidentTrần Đại Quang, Prime MinisterNguyễn Xuân Phúcand Communist Party general secretaryNguyễn Phú Trọng. Attended theAPEC Vietnam 2017.[25][26]",2017,21.0283334,105.854041
4,November 12–14,Philippines,Manila,Attended the31st ASEAN Summit. Met with PresidentRodrigo Duterte.[27],2017,14.5904492,120.9803621
4,November 12–14,Philippines,Pasay,Attended the31st ASEAN Summit. Met with PresidentRodrigo Duterte.[27],2017,14.5436995,120.9946503
5,January 25–26,USA,"Washington, DC",Start in DC,2018,38.9072,-77.0369
5,January 25–26,Switzerland,Davos,Attended theWorld Economic Forum;[28][29]also held bilateral meetings with British prime ministerTheresa Mayand Israeli prime ministerBenjamin Netanyahu.,2018,46.796198,9.8236892
6,June 8–9,USA,"Washington, DC",Start in DC,2018,38.9072,-77.0369
6,June 8–9,Canada,La Malbaie,"Attended the44th G7 summitat theFairmont Le Manoir RichelieuinLa Malbaie,Quebec. Also held bilateral meetings with Canadian prime ministerJustin Trudeauand French presidentEmmanuel Macron.",2018,47.657525,-70.153885
6,June 8–9,Canada,Quebec,"Attended the44th G7 summitat theFairmont Le Manoir RichelieuinLa Malbaie,Quebec. Also held bilateral meetings with Canadian prime ministerJustin Trudeauand French presidentEmmanuel Macron.",2018,52.4760892,-71.8258668
6,June 10,Greece,Crete Naval Base,Stopped en route toSingapore.[30],2018,39.0,22.0
6,June 10–12,Singapore,Central Area,"Attended thesummit meetingwith North Korean chairmanKim Jong Un, becoming the first sitting U.S. president to meet a North Korean leader. Also met with Prime MinisterLee Hsien Loong.[31]",2018,1.28967,103.85007
6,June 10–12,Singapore,Sentosa Island,"Attended thesummit meetingwith North Korean chairmanKim Jong Un, becoming the first sitting U.S. president to meet a North Korean leader. Also met with Prime MinisterLee Hsien Loong.[31]",2018,1.25,103.82667
7,July 10–12,USA,"Washington, DC",Start in DC,2018,38.9072,-77.0369
7,July 10–12,Belgium,Brussels,"Attended the29th NATO summit; also held bilateral meetings with NATO secretary generalJens Stoltenberg, French presidentEmmanuel Macronand German chancellorAngela Merkel.",2018,50.8465573,4.351697
7,July 12–15,United Kingdom,London,Met with QueenElizabeth IIand Prime MinisterTheresa May.[32]Spent weekend at hisTurnberrygolf resort inScotland.,2018,51.5074456,-0.1277653
7,July 12–15,United Kingdom,Blenheim Palace,Met with QueenElizabeth IIand Prime MinisterTheresa May.[32]Spent weekend at hisTurnberrygolf resort inScotland.,2018,51.8419448,-1.3626293
7,July 12–15,United Kingdom,Chequers,Met with QueenElizabeth IIand Prime MinisterTheresa May.[32]Spent weekend at hisTurnberrygolf resort inScotland.,2018,51.8533018,-2.2275661
7,July 12–15,United Kingdom,Windsor Castle,Met with QueenElizabeth IIand Prime MinisterTheresa May.[32]Spent weekend at hisTurnberrygolf resort inScotland.,2018,51.4837886,-0.6040419
7,July 12–15,United Kingdom,Turnberry (golf course),Met with QueenElizabeth IIand Prime MinisterTheresa May.[32]Spent weekend at hisTurnberrygolf resort inScotland.,2018,55.3167617,-4.8313213
7,July 12–15,United Kingdom,South Ayrshire,Met with QueenElizabeth IIand Prime MinisterTheresa May.[32]Spent weekend at hisTurnberrygolf resort inScotland.,2018,55.299818,-4.6459884
7,July 15–16,Finland,Helsinki,Attended thesummit meetingwith Russian PresidentVladimir Putin. Also met with PresidentSauli Niinistö.,2018,60.1674881,24.9427473
8,November 9–11,USA,"Washington, DC",Start in DC,2018,38.9072,-77.0369
8,November 9–11,France,Paris,Met with PresidentEmmanuel Macron. Participated in theArmistice Daycelebrations marking the 100th anniversary of theArmistice with Germanythat brought major hostilities ofWorld War Ito an end. Visited theSuresnes American Cemetery and Memorial.,2018,48.8588897,2.320041
9,November 29 – December 1,USA,"Washington, DC",Start in DC,2018,38.9072,-77.0369
9,November 29 – December 1,Argentina,Buenos Aires,"Attended theG-20 summit. Also held bilateral meetings with Argentinian presidentMauricio Macri, Australian prime ministerScott Morrison, Chinese presidentXi Jinping, German chancellorAngela Merkel, Indian prime ministerNarendra Modi, Japanese prime ministerShinzō Abe, South Korean presidentMoon Jae-in, and Turkish presidentRecep Tayyip Erdoğan.",2018,-34.6083696,-58.4440583
10,December 26,USA,"Washington, DC",Start in DC,2018,38.9072,-77.0369
10,December 26,Iraq,Al Asad Air Base,Visited withU.S. military personnelserving inWestern Iraqaccompanied byFirst LadyMelania Trump. This was the president's second trip to a U.S. combat zone.[33],2018,33.0,44.0
10,December 26–27,Germany,Ramstein Air Base,"Visited withUnited States Armed Forcesserving inRhineland-Palatinate,Germany.[34]",2018,49.441426,7.6012401
11,February 26–28,USA,"Washington, DC",Start in DC,2019,38.9072,-77.0369
11,February 26–28,Vietnam,Hanoi,Attended thesummit meetingwith North Korean chairman Kim Jong Un. Also met with General Secretary and PresidentNguyễn Phú Trọngand Prime MinisterNguyễn Xuân Phúc. Trump made a refueling stop at an airbase in Qatar on the trip toVietnam.,2019,21.0283334,105.854041
12,May 25–28,USA,"Washington, DC",Start in DC,2019,38.9072,-77.0369
12,May 25–28,Japan,Tokyo,State Visit. Met with EmperorNaruhitoand Prime MinisterShinzō Abe.,2019,35.6768601,139.7638947
13,June 3–5,USA,"Washington, DC",Start in DC,2019,38.9072,-77.0369
13,June 3–5,United Kingdom,London,State Visit.[35]Met with QueenElizabeth IIand Prime MinisterTheresa May. Laid a wreath on theTomb of the Unknown WarriorinWestminster Abbey. Attended the 75th anniversary of D-Day commemorative ceremonies.,2019,51.5074456,-0.1277653
13,June 3–5,United Kingdom,Portsmouth,State Visit.[35]Met with QueenElizabeth IIand Prime MinisterTheresa May. Laid a wreath on theTomb of the Unknown WarriorinWestminster Abbey. Attended the 75th anniversary of D-Day commemorative ceremonies.,2019,50.800031,-1.0906023
13,June 5–6,Ireland,Shannon,Met with TaoiseachLeo Varadkar. Spent one night at hisInternationalgolf resort inDoonbeg.,2019,53.1349614,-8.1611027
13,June 5–6,Ireland,County Clare,Met with TaoiseachLeo Varadkar. Spent one night at hisInternationalgolf resort inDoonbeg.,2019,52.8572575,-8.9374359
13,June 6,France,Colleville,Met with PresidentEmmanuel Macron. Attended the 75th anniversary ofD-Daymemorial ceremonies. Visited theNormandy American Cemetery and Memorial.,2019,49.7492373,0.452349
13,June 6,France,Caen,Met with PresidentEmmanuel Macron. Attended the 75th anniversary ofD-Daymemorial ceremonies. Visited theNormandy American Cemetery and Memorial.,2019,49.1813403,-0.3635615
13,June 6–7,Ireland,Shannon,Spent one night at hisInternationalgolf resort inDoonbeg.,2019,53.1349614,-8.1611027
13,June 6–7,Ireland,County Clare,Spent one night at hisInternationalgolf resort inDoonbeg.,2019,52.8572575,-8.9374359
14,June 27–29,USA,"Washington, DC",Start in DC,2019,38.9072,-77.0369
14,June 27–29,Japan,Osaka,"Attended theG-20 summit. Also held bilateral meetings with Australian prime ministerScott Morrison, Brazilian presidentJair Bolsonaro, Chinese presidentXi Jinping, German chancellorAngela Merkel, Indian prime ministerNarendra Modi, Japanese prime ministerShinzō Abe, Saudi crown princeMohammad Bin Salman, Turkish presidentRecep Tayyip Erdoğanand Russian presidentVladimir Putin.",2019,34.6937569,135.5014539
14,June 29–30,South Korea,Seoul,Met with PresidentMoon Jae-in. Visited theKorean Demilitarized Zone. Attended theKoreas–United States DMZ Summitwith President Moon and North Korean chairman Kim Jong Un at theInter-Korean Freedom Houseon the southern side of theJoint Security Areaof the Korean Demilitarized Zone. Visited U.S. troops atOsan Air Base.,2019,37.5666791,126.9782914
14,June 29–30,South Korea,Korean Demilitarized Zone,Met with PresidentMoon Jae-in. Visited theKorean Demilitarized Zone. Attended theKoreas–United States DMZ Summitwith President Moon and North Korean chairman Kim Jong Un at theInter-Korean Freedom Houseon the southern side of theJoint Security Areaof the Korean Demilitarized Zone. Visited U.S. troops atOsan Air Base.,2019,38.2336866,127.0087307
14,June 29–30,South Korea,Seoul,Met with PresidentMoon Jae-in. Visited theKorean Demilitarized Zone. Attended theKoreas–United States DMZ Summitwith President Moon and North Korean chairman Kim Jong Un at theInter-Korean Freedom Houseon the southern side of theJoint Security Areaof the Korean Demilitarized Zone. Visited U.S. troops atOsan Air Base.,2019,37.5666791,126.9782914
14,June 29–30,South Korea,Korean Demilitarized Zone,Met with PresidentMoon Jae-in. Visited theKorean Demilitarized Zone. Attended theKoreas–United States DMZ Summitwith President Moon and North Korean chairman Kim Jong Un at theInter-Korean Freedom Houseon the southern side of theJoint Security Areaof the Korean Demilitarized Zone. Visited U.S. troops atOsan Air Base.,2019,38.2336866,127.0087307
14,June 30,North Korea,Joint Security Area,"Briefly walked into the northern side of the Joint Security Area of the Korean Demilitarized Zone, accompanied by North Korean chairman Kim Jong Un, becoming the first sitting U.S. president to enter North Korea.",2019,40.0,127.0
15,August 24–26,USA,"Washington, DC",Start in DC,2019,38.9072,-77.0369
15,August 24–26,France,Biarritz,"Attended the45th G7 summitat theHôtel du PalaisinBiarritz. Also held bilateral meetings with Australian prime ministerScott Morrison, British prime ministerBoris Johnson, Canadian prime ministerJustin Trudeau, Egyptian presidentAbdel Fattah el-Sisi, French presidentEmmanuel Macron, German chancellorAngela Merkel, Indian prime ministerNarendra Modiand Japanese prime ministerShinzō Abe.",2019,43.4832523,-1.5592776
16,November 28,USA,"Washington, DC",Start in DC,2019,38.9072,-77.0369
16,November 28,Afghanistan,Bagram Airfield,Visited withU.S. military personnelserving inEastern Afghanistanaccompanied byFirst LadyMelania Trump. This was the president's fourth trip to a U.S. combat zone. Also met with PresidentAshraf Ghani.,2019,34.9390767,69.2764727
17,December 2–4,USA,"Washington, DC",Start in DC,2019,38.9072,-77.0369
17,December 2–4,United Kingdom,London,"Attended the30th NATO summit. Met with QueenElizabeth IIand Prime MinisterBoris Johnson. Also held bilateral meetings with Canadian prime ministerJustin Trudeau, Danish prime ministerMette Frederiksen, French presidentEmmanuel Macron, German chancellorAngela Merkeland Italian prime ministerGiuseppe Conte.",2019,51.5074456,-0.1277653
17,December 2–4,United Kingdom,Watford,"Attended the30th NATO summit. Met with QueenElizabeth IIand Prime MinisterBoris Johnson. Also held bilateral meetings with Canadian prime ministerJustin Trudeau, Danish prime ministerMette Frederiksen, French presidentEmmanuel Macron, German chancellorAngela Merkeland Italian prime ministerGiuseppe Conte.",2019,51.6553875,-0.3957425
18,January 21–22,USA,"Washington, DC",Start in DC,2020,38.9072,-77.0369
18,January 21–22,Switzerland,Davos,"Attended theWorld Economic Forum;[36]also held bilateral meetings with European Commission presidentUrsula von der Leyen, Iraqi presidentBarham Salih, Iraqi Kurdish presidentNechirvan Barzani, Pakistani prime ministerImran Khan, and Swiss presidentSimonetta Sommaruga.[37]",2020,46.796198,9.8236892
19,February 24–25,USA,"Washington, DC",Start in DC,2020,38.9072,-77.0369
19,February 24–25,India,Ahmedabad,"Addressed a ""Namaste(Welcome) Trump"" event withPrime MinisterNarendra Modiin Ahmedabad. TouredMahatma Gandhi'sSabarmati Ashramand theTaj Mahal.[38]Received a formal welcome fromPresidentRam Nath Kovindat theRashtrapati BhavanPresidential Palace in New Delhi. Conducted a series of meetings with Modi and other government officials, as well as Indian business executives.[39]",2020,23.0215374,72.5800568
19,February 24–25,India,Agra,"Addressed a ""Namaste(Welcome) Trump"" event withPrime MinisterNarendra Modiin Ahmedabad. TouredMahatma Gandhi'sSabarmati Ashramand theTaj Mahal.[38]Received a formal welcome fromPresidentRam Nath Kovindat theRashtrapati BhavanPresidential Palace in New Delhi. Conducted a series of meetings with Modi and other government officials, as well as Indian business executives.[39]",2020,27.1752554,78.0098161
19,February 24–25,India,New Delhi,"Addressed a ""Namaste(Welcome) Trump"" event withPrime MinisterNarendra Modiin Ahmedabad. TouredMahatma Gandhi'sSabarmati Ashramand theTaj Mahal.[38]Received a formal welcome fromPresidentRam Nath Kovindat theRashtrapati BhavanPresidential Palace in New Delhi. Conducted a series of meetings with Modi and other government officials, as well as Indian business executives.[39]",2020,28.6430858,77.2192671